Place Name,drawable_file_name,latitude,longitude,
Bronx Zoo Store,shop_small,40.85008322766781,-73.87999750918887,
Crossroads Shop,shop_small,40.8508155378652,-73.8778364818866,
Discover the Wild Shop,shop_small,40.85165255606378,-73.87996502221783,
Somba Village Shop,shop_small,40.84764250751594,-73.8784582838762,
Asia Shops,shop_small,40.84510677161594,-73.87678591554732,
